[
  {
    "name": "Diesel",
    "city": "seattle",
    "wikipedia": "https://en.wikipedia.org/wiki/Diesel_(gay_bar)",
    "gayCities": "https://seattle.gaycities.com/bars/302690-diesel",
    "coordinates": "47.6133, -122.3143",
    "website": "http://dieselseattle.com/DIESEL.html"
  },
  {
    "name": "The Lumber Yard Bar",
    "city": "seattle",
    "gayCities": "https://seattle.gaycities.com/bars/309627-the-lumber-yard-bar",
    "address": "9630 16th Ave SW, Seattle, WA 98106",
    "coordinates": "47.5165235, -122.3548059",
    "googleMaps": "https://www.google.com/maps/place/?q=place_id:ChIJ-8uYrt9DkFQRXv1WZmNZ8F0"
  },
  {
    "name": "The Cuff Complex",
    "city": "seattle",
    "gayCities": "https://seattle.gaycities.com/bars/514-the-cuff-complex",
    "address": "1533 13th Ave, Seattle, WA 98122",
    "coordinates": "47.6150778, -122.3157208",
    "facebook": "https://www.facebook.com/thecuffcomplex",
    "googleMaps": "https://www.google.com/maps/place/?q=place_id:ChIJuQVbk81qkFQRkm6N_RnwHQY"
  },
  {
    "name": "Seattle Eagle",
    "city": "seattle",
    "wikipedia": "https://en.wikipedia.org/wiki/Seattle_Eagle",
    "gayCities": "https://seattle.gaycities.com/bars/506-seattle-eagle",
    "address": "314 Pike Street",
    "coordinates": "47.61427, -122.32708",
    "website": "http://seattleeagle.com"
  },
  {
    "name": "CCâ€™s Seattle",
    "city": "seattle",
    "gayCities": "https://seattle.gaycities.com/bars/505-ccs-seattle",
    "address": "1701 E Olive Wy, Seattle, WA 98102",
    "coordinates": "47.6196626, -122.3233158",
    "facebook": "https://www.facebook.com/ccsseattle",
    "googleMaps": "https://www.google.com/maps/place/?q=place_id:ChIJk-Ws_tFqkFQRc2h8MPRvv5I"
  },
  {
    "name": "Madison Pub",
    "city": "seattle",
    "gayCities": "https://seattle.gaycities.com/bars/508-madison-pub",
    "address": "1315 East Madison Street",
    "coordinates": "47.613442, -122.314883",
    "website": "http://madisonpub.com"
  },
  {
    "name": "Pony",
    "city": "seattle",
    "gayCities": "https://seattle.gaycities.com/bars/2442-pony",
    "address": "1221 E. Madison Street",
    "coordinates": "47.61309, -122.31575",
    "website": "http://ponyseattle.com"
  }
]